{"type":"FeatureCollection","features":[{"type":"Feature","properties":{"station_id":"2","name":"Harbour Town - Docklands Dve - Docklands","rental_method":"CREDITCARD,KEY","capacity":"23","lat":"-37.814022","lon":"144.939521","location":"(-37.814022, 144.939521)"},"geometry":{"type":"Point","coordinates":[144.939521,-37.814022]}},{"type":"Feature","properties":{"station_id":"6","name":"State Library - Swanston St / Little Lonsdale St - City","rental_method":"CREDITCARD,KEY","capacity":"11","lat":"-37.810702","lon":"144.964417","location":"(-37.810702, 144.964417)"},"geometry":{"type":"Point","coordinates":[144.964417,-37.810702]}},{"type":"Feature","properties":{"station_id":"7","name":"Bourke Street Mall - 205 Bourke St - City","rental_method":"CREDITCARD,KEY","capacity":"11","lat":"-37.813088","lon":"144.967437","location":"(-37.813088, 144.967437)"},"geometry":{"type":"Point","coordinates":[144.967437,-37.813088]}},{"type":"Feature","properties":{"station_id":"8","name":"Melbourne Uni - Tin Alley - Carlton","rental_method":"CREDITCARD,KEY","capacity":"19","lat":"-37.79625","lon":"144.960858","location":"(-37.79625, 144.960858)"},"geometry":{"type":"Point","coordinates":[144.960858,-37.79625]}},{"type":"Feature","properties":{"station_id":"9","name":"RMIT - Swanston St / Franklin St - City","rental_method":"CREDITCARD,KEY","capacity":"7","lat":"-37.807699","lon":"144.963095","location":"(-37.807699, 144.963095)"},"geometry":{"type":"Point","coordinates":[144.963095,-37.807699]}},{"type":"Feature","properties":{"station_id":"10","name":"St Paul's Cathedral - Swanston St / Flinders St - City","rental_method":"CREDITCARD,KEY","capacity":"11","lat":"-37.817189","lon":"144.967409","location":"(-37.817189, 144.967409)"},"geometry":{"type":"Point","coordinates":[144.967409,-37.817189]}},{"type":"Feature","properties":{"station_id":"11","name":"MSAC - Aughtie Dve - Albert Park","rental_method":"CREDITCARD,KEY","capacity":"27","lat":"-37.842395","lon":"144.961868","location":"(-37.842395, 144.961868)"},"geometry":{"type":"Point","coordinates":[144.961868,-37.842395]}},{"type":"Feature","properties":{"station_id":"12","name":"Fitzroy Town Hall - Moor St - Fitzroy","rental_method":"CREDITCARD,KEY","capacity":"11","lat":"-37.801813","lon":"144.979209","location":"(-37.801813, 144.979209)"},"geometry":{"type":"Point","coordinates":[144.979209,-37.801813]}},{"type":"Feature","properties":{"station_id":"14","name":"Plum Garland Reserve - Beaconsfield Pde - Albert Park","rental_method":"CREDITCARD,KEY","capacity":"19","lat":"-37.847795","lon":"144.948351","location":"(-37.847795, 144.948351)"},"geometry":{"type":"Point","coordinates":[144.948351,-37.847795]}},{"type":"Feature","properties":{"station_id":"15","name":"Vic Barracks - Coventry St / St Kilda Rd - Southbank","rental_method":"CREDITCARD,KEY","capacity":"11","lat":"-37.828887","lon":"144.970822","location":"(-37.828887, 144.970822)"},"geometry":{"type":"Point","coordinates":[144.970822,-37.828887]}},{"type":"Feature","properties":{"station_id":"16","name":"NAB - Harbour Esp / Bourke St - Docklands","rental_method":"CREDITCARD,KEY","capacity":"33","lat":"-37.818306","lon":"144.945923","location":"(-37.818306, 144.945923)"},"geometry":{"type":"Point","coordinates":[144.945923,-37.818306]}},{"type":"Feature","properties":{"station_id":"17","name":"Yarra's Point - Lorimer St / Yarra River - Docklands","rental_method":"CREDITCARD,KEY","capacity":"15","lat":"-37.823805","lon":"144.943051","location":"(-37.823805, 144.943051)"},"geometry":{"type":"Point","coordinates":[144.943051,-37.823805]}},{"type":"Feature","properties":{"station_id":"18","name":"Argyle Square - Lygon St - Carlton","rental_method":"CREDITCARD,KEY","capacity":"11","lat":"-37.802129","lon":"144.96677","location":"(-37.802129, 144.96677)"},"geometry":{"type":"Point","coordinates":[144.96677,-37.802129]}},{"type":"Feature","properties":{"station_id":"20","name":"Parliament Station - Nicholson St / Albert St - City","rental_method":"CREDITCARD,KEY","capacity":"15","lat":"-37.809072","lon":"144.972762","location":"(-37.809072, 144.972762)"},"geometry":{"type":"Point","coordinates":[144.972762,-37.809072]}},{"type":"Feature","properties":{"station_id":"21","name":"Bridport St / Montague St - Albert Park","rental_method":"CREDITCARD,KEY","capacity":"23","lat":"-37.840885","lon":"144.955303","location":"(-37.840885, 144.955303)"},"geometry":{"type":"Point","coordinates":[144.955303,-37.840885]}},{"type":"Feature","properties":{"station_id":"22","name":"Pickles St / Ingles St - Port Melbourne","rental_method":"CREDITCARD,KEY","capacity":"23","lat":"-37.835803","lon":"144.94852","location":"(-37.835803, 144.94852)"},"geometry":{"type":"Point","coordinates":[144.94852,-37.835803]}},{"type":"Feature","properties":{"station_id":"23","name":"Yarra's Edge - River Esp / Yarra River - Docklands","rental_method":"CREDITCARD,KEY","capacity":"11","lat":"-37.824468","lon":"144.946033","location":"(-37.824468, 144.946033)"},"geometry":{"type":"Point","coordinates":[144.946033,-37.824468]}},{"type":"Feature","properties":{"station_id":"24","name":"North Melbourne Station - Adderley St - North Melbourne","rental_method":"CREDITCARD,KEY","capacity":"19","lat":"-37.807021","lon":"144.941854","location":"(-37.807021, 144.941854)"},"geometry":{"type":"Point","coordinates":[144.941854,-37.807021]}},{"type":"Feature","properties":{"station_id":"25","name":"Sandridge Bridge - Southbank","rental_method":"CREDITCARD,KEY","capacity":"27","lat":"-37.820836","lon":"144.962266","location":"(-37.820836, 144.962266)"},"geometry":{"type":"Point","coordinates":[144.962266,-37.820836]}},{"type":"Feature","properties":{"station_id":"26","name":"Beach St - Port Melbourne","rental_method":"CREDITCARD,KEY","capacity":"39","lat":"-37.841954","lon":"144.935296","location":"(-37.841954, 144.935296)"},"geometry":{"type":"Point","coordinates":[144.935296,-37.841954]}},{"type":"Feature","properties":{"station_id":"27","name":"New Quay Prom / Harbour Esp - Docklands","rental_method":"CREDITCARD,KEY","capacity":"27","lat":"-37.814117","lon":"144.944081","location":"(-37.814117, 144.944081)"},"geometry":{"type":"Point","coordinates":[144.944081,-37.814117]}},{"type":"Feature","properties":{"station_id":"28","name":"Queensbridge St / Yarra River - Southbank","rental_method":"CREDITCARD,KEY","capacity":"15","lat":"-37.821071","lon":"144.961113","location":"(-37.821071, 144.961113)"},"geometry":{"type":"Point","coordinates":[144.961113,-37.821071]}},{"type":"Feature","properties":{"station_id":"29","name":"Southern Cross Station - Spencer St - City","rental_method":"CREDITCARD,KEY","capacity":"27","lat":"-37.818124","lon":"144.953581","location":"(-37.818124, 144.953581)"},"geometry":{"type":"Point","coordinates":[144.953581,-37.818124]}},{"type":"Feature","properties":{"station_id":"30","name":"Gasworks Arts Park - Pickles St - Albert Park","rental_method":"CREDITCARD,KEY","capacity":"11","lat":"-37.842174","lon":"144.946051","location":"(-37.842174, 144.946051)"},"geometry":{"type":"Point","coordinates":[144.946051,-37.842174]}},{"type":"Feature","properties":{"station_id":"31","name":"Cleve Gardens - Fitzroy St - St Kilda","rental_method":"CREDITCARD,KEY","capacity":"15","lat":"-37.861984","lon":"144.97341","location":"(-37.861984, 144.97341)"},"geometry":{"type":"Point","coordinates":[144.97341,-37.861984]}},{"type":"Feature","properties":{"station_id":"32","name":"West Beach Pavilion - Beaconsfield Pde - St Kilda West","rental_method":"CREDITCARD,KEY","capacity":"15","lat":"-37.858553","lon":"144.969101","location":"(-37.858553, 144.969101)"},"geometry":{"type":"Point","coordinates":[144.969101,-37.858553]}},{"type":"Feature","properties":{"station_id":"33","name":"Siddeley St / Seafarers Bridge - Docklands","rental_method":"CREDITCARD,KEY","capacity":"23","lat":"-37.823124","lon":"144.951918","location":"(-37.823124, 144.951918)"},"geometry":{"type":"Point","coordinates":[144.951918,-37.823124]}},{"type":"Feature","properties":{"station_id":"35","name":"Yorkshire Brewery - Wellington St - Collingwood","rental_method":"CREDITCARD,KEY","capacity":"7","lat":"-37.805997","lon":"144.986953","location":"(-37.805997, 144.986953)"},"geometry":{"type":"Point","coordinates":[144.986953,-37.805997]}},{"type":"Feature","properties":{"station_id":"36","name":"Napier St / Victoria Pde - Fitzroy","rental_method":"CREDITCARD,KEY","capacity":"11","lat":"-37.808266","lon":"144.979005","location":"(-37.808266, 144.979005)"},"geometry":{"type":"Point","coordinates":[144.979005,-37.808266]}},{"type":"Feature","properties":{"station_id":"37","name":"University Square - Grattan St - Carlton","rental_method":"CREDITCARD,KEY","capacity":"15","lat":"-37.800214","lon":"144.960313","location":"(-37.800214, 144.960313)"},"geometry":{"type":"Point","coordinates":[144.960313,-37.800214]}},{"type":"Feature","properties":{"station_id":"38","name":"Aquarium - Kings Way / Flinders St - City","rental_method":"CREDITCARD,KEY","capacity":"11","lat":"-37.821324","lon":"144.958318","location":"(-37.821324, 144.958318)"},"geometry":{"type":"Point","coordinates":[144.958318,-37.821324]}},{"type":"Feature","properties":{"station_id":"39","name":"Richmond Station - Brunton Ave - East Melbourne","rental_method":"CREDITCARD,KEY","capacity":"19","lat":"-37.822962","lon":"144.988507","location":"(-37.822962, 144.988507)"},"geometry":{"type":"Point","coordinates":[144.988507,-37.822962]}},{"type":"Feature","properties":{"station_id":"40","name":"Rod Laver Arena - Batman Ave / Swan St - City","rental_method":"CREDITCARD,KEY","capacity":"23","lat":"-37.822987","lon":"144.978459","location":"(-37.822987, 144.978459)"},"geometry":{"type":"Point","coordinates":[144.978459,-37.822987]}},{"type":"Feature","properties":{"station_id":"41","name":"Domain Interchange - Park St / St Kilda Rd - Melbourne","rental_method":"CREDITCARD,KEY","capacity":"15","lat":"-37.832396","lon":"144.971678","location":"(-37.832396, 144.971678)"},"geometry":{"type":"Point","coordinates":[144.971678,-37.832396]}},{"type":"Feature","properties":{"station_id":"42","name":"Kings Way / St Kilda Rd - Melbourne","rental_method":"CREDITCARD,KEY","capacity":"27","lat":"-37.836323","lon":"144.975162","location":"(-37.836323, 144.975162)"},"geometry":{"type":"Point","coordinates":[144.975162,-37.836323]}},{"type":"Feature","properties":{"station_id":"43","name":"Spring St / Collins St - City","rental_method":"CREDITCARD,KEY","capacity":"11","lat":"-37.813774","lon":"144.974054","location":"(-37.813774, 144.974054)"},"geometry":{"type":"Point","coordinates":[144.974054,-37.813774]}},{"type":"Feature","properties":{"station_id":"44","name":"Queens Rd / Bowen Cres - Melbourne","rental_method":"CREDITCARD,KEY","capacity":"15","lat":"-37.835383","lon":"144.973699","location":"(-37.835383, 144.973699)"},"geometry":{"type":"Point","coordinates":[144.973699,-37.835383]}},{"type":"Feature","properties":{"station_id":"45","name":"Luna Park - Lower Esp - St Kilda","rental_method":"CREDITCARD,KEY","capacity":"38","lat":"-37.867068","lon":"144.976428","location":"(-37.867068, 144.976428)"},"geometry":{"type":"Point","coordinates":[144.976428,-37.867068]}},{"type":"Feature","properties":{"station_id":"46","name":"South Melbourne Market - York St / Cecil St - South Melbourne","rental_method":"CREDITCARD,KEY","capacity":"15","lat":"-37.831475","lon":"144.957511","location":"(-37.831475, 144.957511)"},"geometry":{"type":"Point","coordinates":[144.957511,-37.831475]}},{"type":"Feature","properties":{"station_id":"47","name":"VCAM - St Kilda Rd / Southbank Blvd - Southbank","rental_method":"CREDITCARD,KEY","capacity":"11","lat":"-37.824088","lon":"144.970085","location":"(-37.824088, 144.970085)"},"geometry":{"type":"Point","coordinates":[144.970085,-37.824088]}},{"type":"Feature","properties":{"station_id":"48","name":"Museum - Rathdowne St - Carlton","rental_method":"CREDITCARD,KEY","capacity":"15","lat":"-37.803868","lon":"144.969609","location":"(-37.803868, 144.969609)"},"geometry":{"type":"Point","coordinates":[144.969609,-37.803868]}},{"type":"Feature","properties":{"station_id":"49","name":"Jolimont Station - Wellington Pde South - East Melbourne","rental_method":"CREDITCARD,KEY","capacity":"11","lat":"-37.816731","lon":"144.982006","location":"(-37.816731, 144.982006)"},"geometry":{"type":"Point","coordinates":[144.982006,-37.816731]}},{"type":"Feature","properties":{"station_id":"50","name":"ACCA - Sturt St - Southbank","rental_method":"CREDITCARD,KEY","capacity":"23","lat":"-37.826578","lon":"144.966542","location":"(-37.826578, 144.966542)"},"geometry":{"type":"Point","coordinates":[144.966542,-37.826578]}},{"type":"Feature","properties":{"station_id":"51","name":"ANZ - Collins St - Docklands","rental_method":"CREDITCARD,KEY","capacity":"19","lat":"-37.821568","lon":"144.944488","location":"(-37.821568, 144.944488)"},"geometry":{"type":"Point","coordinates":[144.944488,-37.821568]}},{"type":"Feature","properties":{"station_id":"52","name":"Flagstaff Gardens - Peel St - West Melbourne","rental_method":"CREDITCARD,KEY","capacity":"11","lat":"-37.809216","lon":"144.955223","location":"(-37.809216, 144.955223)"},"geometry":{"type":"Point","coordinates":[144.955223,-37.809216]}},{"type":"Feature","properties":{"station_id":"53","name":"Victoria Market - Elizabeth St / Victoria St - City","rental_method":"CREDITCARD,KEY","capacity":"25","lat":"-37.806091","lon":"144.959017","location":"(-37.806091, 144.959017)"},"geometry":{"type":"Point","coordinates":[144.959017,-37.806091]}},{"type":"Feature","properties":{"station_id":"55","name":"Coventry St / Clarendon St - South Melbourne","rental_method":"CREDITCARD,KEY","capacity":"11","lat":"-37.831776","lon":"144.960818","location":"(-37.831776, 144.960818)"},"geometry":{"type":"Point","coordinates":[144.960818,-37.831776]}},{"type":"Feature","properties":{"station_id":"57","name":"Fitzroy Street - St Kilda","rental_method":"CREDITCARD,KEY","capacity":"31","lat":"-37.858655","lon":"144.978818","location":"(-37.858655, 144.978818)"},"geometry":{"type":"Point","coordinates":[144.978818,-37.858655]}},{"type":"Feature","properties":{"station_id":"4","name":"Arts Centre - St Kilda Road - City","rental_method":"CREDITCARD,KEY","capacity":"15","lat":"-37.82071559","lon":"144.9691647","location":"(-37.820715594013, 144.969164729118)"},"geometry":{"type":"Point","coordinates":[144.969165,-37.820716]}},{"type":"Feature","properties":{"station_id":"34","name":"RACV - Bourke St / New Chancery Ln - City","rental_method":"CREDITCARD,KEY","capacity":"11","lat":"-37.81523","lon":"144.959731","location":"(-37.81523, 144.959731)"},"geometry":{"type":"Point","coordinates":[144.959731,-37.81523]}}]}